[
  {
    "name": "Warschau",
    "lat": 52.2297,
    "lon": 21.0122,
    "source": "0066_Peter 26.02.44.xml",
    "note": "im Brief genannt"
  },
  {
    "name": "Guttentag",
    "lat": 50.6156,
    "lon": 18.4454,
    "source": "Unbekannt",
    "note": "ehem. Oberschlesien"
  },
  {
    "name": "Sambir",
    "lat": 49.5180,
    "lon": 23.2003,
    "source": "0016_Karl 07.08.43.xml",
    "note": "möglicher Standort"
  },
  {
    "name": "Bolesławiec",
    "lat": 51.2638,
    "lon": 15.5693,
    "source": "Unbekannt",
    "note": "im Kontext erwähnt"
  },
  {
    "name": "Wittlich",
    "lat": 49.9853,
    "lon": 6.8936,
    "source": "Heimatort",
    "note": "Herkunft der Familie"
  },
  {
    "name": "Dreis",
    "lat": 50.0337,
    "lon": 6.8510,
    "source": "Heimatort",
    "note": "Wohnort der Familie Klein"
  },
  {
    "name": "Trier",
    "lat": 49.7499,
    "lon": 6.6371,
    "source": "Region",
    "note": "nächstgelegene Stadt"
  }
  {
  "name": "Tábor",
  "lat": 49.4144,
  "lon": 14.6578,
  "source": "0048_Karl 25.07.44.xml",
  "note": "Feldwerfer-Schule der Infanterie, 2. Grenadier-Lehrgang"
}

]
